[
    {
        "nom": "Écocentre Beauport",
        "adresse": "425, boulevard Raymond",
        "latitude": 46.88521930314338,
        "longitude": -71.18372107354257
    },
    {
        "nom": "Écocentre de l'Hêtrière",
        "adresse": "3381, rue de l'Hêtrière",
        "latitude": 46.76244690968637,
        "longitude": -71.37346876265237
    },
    {
        "nom": "Écocentre des Rivières",
        "adresse": "1700, rue Provinciale",
        "latitude": 46.80160410775752,
        "longitude": -71.27219937649708
    },
    {
        "nom": "Écocentre Jean-Talon (Matrec)",
        "adresse": "1700, boulevard Jean-Talon Ouest",
        "latitude": 46.86461389682903,
        "longitude": -71.30704941676044
    },
    {
        "nom": "Écocentre Val-Bélair",
        "adresse": "1472, rue Jean-Bardot",
        "latitude": 46.878427773775876,
        "longitude": -71.45029688051571
    }
]
